[{"_id": "9", "_index": "school_demo", "_score": 1.8070657, "_source": {"city": "Portland", "code": "jale151", "country": "US", "latitude": 45.518589, "longitude": -122.676156, "name": "Polk School", "number_of_users": 2, "school_type": ["middle_school", "elementary_school"], "state": "Oregon"}, "_type": "_doc"}, {"_id": "10", "_index": "school_demo", "_score": 0.41299203, "_source": {"city": "Kansas City", "code": "vmo4jaks", "country": "US", "latitude": 39.087773, "longitude": -94.587777, "name": "Bayside School", "number_of_users": 59, "school_type": ["high_school", "elementary_school"], "state": "Missouri"}, "_type": "_doc"}, {"_id": "5", "_index": "school_demo", "_score": 0.31387395, "_source": {"city": "San Francisco", "code": "4ja03j", "country": "US", "latitude": 37.746773, "longitude": -122.427137, "name": "San Francisco Middle School", "number_of_users": 82, "school_type": ["middle_school"], "state": "California"}, "_type": "_doc"}, {"_id": "3", "_index": "school_demo", "_score": 0.2876821, "_source": {"city": "San Mateo", "code": "u01jao23", "country": "US", "latitude": 37.543778, "longitude": -122.307988, "name": "San Mateo Elementary School", "number_of_users": 49, "school_type": ["elementary_school"], "state": "California"}, "_type": "_doc"}, {"_id": "7", "_index": "school_demo", "_score": 0.19363807, "_source": {"city": "Fresno", "code": "5j1l04", "country": "US", "latitude": 36.778856, "longitude": -119.790636, "name": "Hamburger Elementary School", "number_of_users": 36, "school_type": ["elementary_school"], "state": "California"}, "_type": "_doc"}, {"_id": "1", "_index": "school_demo", "_score": 0.17225473, "_source": {"city": "San Mateo", "code": "a41vwe4", "country": "US", "latitude": 37.544632, "longitude": -122.290188, "name": "San Mateo High School", "number_of_users": 20, "school_type": ["high_school"], "state": "California"}, "_type": "_doc"}, {"_id": "6", "_index": "school_demo", "_score": 0.1442616, "_source": {"city": "Portland", "code": "5j1jla", "country": "US", "latitude": 45.47898, "longitude": -122.617322, "name": "Fries High School", "number_of_users": 86, "school_type": ["high_school"], "state": "Oregon"}, "_type": "_doc"}, {"_id": "2", "_index": "school_demo", "_score": 0.12874341, "_source": {"city": "San Mateo", "code": "502f23kj", "country": "US", "latitude": 37.563245, "longitude": -122.249657, "name": "San Mateo Middle School", "number_of_users": 320, "school_type": ["middle_school"], "state": "California"}, "_type": "_doc"}, {"_id": "4", "_index": "school_demo", "_score": 0.12874341, "_source": {"city": "San Diego", "code": "gjqp245", "country": "US", "latitude": 32.832585, "longitude": -117.160717, "name": "San Diego High School", "number_of_users": 533, "school_type": ["high_school"], "state": "California"}, "_type": "_doc"}]